[{"model": "location.city", "pk": "84562a40-f87d-11e8-a978-005056c00008", "fields": {"name": "Th\u00e0nh ph\u1ed1 H\u00e0 N\u1ed9i", "lat": 21.0277644, "lon": 105.8341598, "order": 1, "status": true, "created_by": null}}, {"model": "location.city", "pk": "846bd51e-f87d-11e8-a460-005056c00008", "fields": {"name": "T\u1ec9nh H\u00e0 Giang", "lat": 22.7662056, "lon": 104.9388853, "order": 1, "status": true, "created_by": null}}, {"model": "location.city", "pk": "8479b7cf-f87d-11e8-a245-005056c00008", "fields": {"name": "T\u1ec9nh Cao B\u1eb1ng", "lat": 22.635689, "lon": 106.2522143, "order": 1, "status": true, "created_by": null}}, {"model": "location.city", "pk": "8486890f-f87d-11e8-9f58-005056c00008", "fields": {"name": "T\u1ec9nh B\u1eafc K\u1ea1n", "lat": 22.3032923, "lon": 105.876004, "order": 1, "status": true, "created_by": null}}, {"model": "location.city", "pk": "8491aca1-f87d-11e8-8924-005056c00008", "fields": {"name": "T\u1ec9nh Tuy\u00ean Quang", "lat": 22.1726708, "lon": 105.3131185, "order": 1, "status": true, "created_by": null}}, {"model": "location.city", "pk": "84a5f7f0-f87d-11e8-ac70-005056c00008", "fields": {"name": "T\u1ec9nh L\u00e0o Cai", "lat": 22.3380865, "lon": 104.1487055, "order": 1, "status": true, "created_by": null}}, {"model": "location.city", "pk": "84af1fae-f87d-11e8-91fc-005056c00008", "fields": {"name": "T\u1ec9nh \u0110i\u1ec7n Bi\u00ean", "lat": 21.8042309, "lon": 103.1076525, "order": 1, "status": true, "created_by": null}}, {"model": "location.city", "pk": "84ba4340-f87d-11e8-8b79-005056c00008", "fields": {"name": "T\u1ec9nh Lai Ch\u00e2u", "lat": 22.3686613, "lon": 103.3119085, "order": 1, "status": true, "created_by": null}}, {"model": "location.city", "pk": "84c3920f-f87d-11e8-9181-005056c00008", "fields": {"name": "T\u1ec9nh S\u01a1n La", "lat": 21.1022284, "lon": 103.7289167, "order": 1, "status": true, "created_by": null}}, {"model": "location.city", "pk": "84cfee21-f87d-11e8-81b0-005056c00008", "fields": {"name": "T\u1ec9nh Y\u00ean B\u00e1i", "lat": 21.6837923, "lon": 104.4551361, "order": 1, "status": true, "created_by": null}}, {"model": "location.city", "pk": "84d915e1-f87d-11e8-8c57-005056c00008", "fields": {"name": "T\u1ec9nh Ho\u00e0 B\u00ecnh", "lat": 20.6861265, "lon": 105.3131185, "order": 1, "status": true, "created_by": null}}, {"model": "location.city", "pk": "84e43970-f87d-11e8-b809-005056c00008", "fields": {"name": "T\u1ec9nh Th\u00e1i Nguy\u00ean", "lat": 21.5613771, "lon": 105.876004, "order": 1, "status": true, "created_by": null}}, {"model": "location.city", "pk": "84ed8840-f87d-11e8-acb1-005056c00008", "fields": {"name": "T\u1ec9nh L\u1ea1ng S\u01a1n", "lat": 21.8563705, "lon": 106.6291304, "order": 1, "status": true, "created_by": null}}, {"model": "location.city", "pk": "84f8abcf-f87d-11e8-b19a-005056c00008", "fields": {"name": "T\u1ec9nh Qu\u1ea3ng Ninh", "lat": 21.006382, "lon": 107.2925144, "order": 1, "status": true, "created_by": null}}, {"model": "location.city", "pk": "850221b0-f87d-11e8-95f3-005056c00008", "fields": {"name": "T\u1ec9nh B\u1eafc Giang", "lat": 21.3014947, "lon": 106.6291304, "order": 1, "status": true, "created_by": null}}, {"model": "location.city", "pk": "850bbea1-f87d-11e8-9783-005056c00008", "fields": {"name": "T\u1ec9nh Ph\u00fa Th\u1ecd", "lat": 21.268443, "lon": 105.2045573, "order": 1, "status": true, "created_by": null}}, {"model": "location.city", "pk": "8514e65e-f87d-11e8-85b5-005056c00008", "fields": {"name": "T\u1ec9nh V\u0129nh Ph\u00fac", "lat": 21.3608805, "lon": 105.5474373, "order": 1, "status": true, "created_by": null}}, {"model": "location.city", "pk": "853c4480-f87d-11e8-bdb4-005056c00008", "fields": {"name": "T\u1ec9nh B\u1eafc Ninh", "lat": 21.121444, "lon": 106.1110501, "order": 1, "status": true, "created_by": null}}, {"model": "location.city", "pk": "8547b62e-f87d-11e8-ac19-005056c00008", "fields": {"name": "T\u1ec9nh H\u1ea3i D\u01b0\u01a1ng", "lat": 20.9385958, "lon": 106.3206861, "order": 1, "status": true, "created_by": null}}, {"model": "location.city", "pk": "85541240-f87d-11e8-9574-005056c00008", "fields": {"name": "Th\u00e0nh ph\u1ed1 H\u1ea3i Ph\u00f2ng", "lat": 20.8449115, "lon": 106.6880841, "order": 1, "status": true, "created_by": null}}, {"model": "location.city", "pk": "85635480-f87d-11e8-88a4-005056c00008", "fields": {"name": "T\u1ec9nh H\u01b0ng Y\u00ean", "lat": 20.8525711, "lon": 106.0169971, "order": 1, "status": true, "created_by": null}}, {"model": "location.city", "pk": "856af5a1-f87d-11e8-a3e8-005056c00008", "fields": {"name": "T\u1ec9nh Th\u00e1i B\u00ecnh", "lat": 20.5386936, "lon": 106.3934777, "order": 1, "status": true, "created_by": null}}, {"model": "location.city", "pk": "85757cee-f87d-11e8-b5fa-005056c00008", "fields": {"name": "T\u1ec9nh H\u00e0 Nam", "lat": 20.5835196, "lon": 105.92299, "order": 1, "status": true, "created_by": null}}, {"model": "location.city", "pk": "857e7d9e-f87d-11e8-acf9-005056c00008", "fields": {"name": "T\u1ec9nh Nam \u0110\u1ecbnh", "lat": 20.2791804, "lon": 106.2051484, "order": 1, "status": true, "created_by": null}}, {"model": "location.city", "pk": "8589ef4f-f87d-11e8-9710-005056c00008", "fields": {"name": "T\u1ec9nh Ninh B\u00ecnh", "lat": 20.2129969, "lon": 105.92299, "order": 1, "status": true, "created_by": null}}, {"model": "location.city", "pk": "85956100-f87d-11e8-9af1-005056c00008", "fields": {"name": "T\u1ec9nh Thanh H\u00f3a", "lat": 20.1291279, "lon": 105.3131185, "order": 1, "status": true, "created_by": null}}, {"model": "location.city", "pk": "85a343b0-f87d-11e8-8546-005056c00008", "fields": {"name": "T\u1ec9nh Ngh\u1ec7 An", "lat": 19.2342489, "lon": 104.9200365, "order": 1, "status": true, "created_by": null}}, {"model": "location.city", "pk": "85aeb55e-f87d-11e8-a3c8-005056c00008", "fields": {"name": "T\u1ec9nh H\u00e0 T\u0129nh", "lat": 18.2943776, "lon": 105.6745247, "order": 1, "status": true, "created_by": null}}, {"model": "location.city", "pk": "85b65680-f87d-11e8-8950-005056c00008", "fields": {"name": "T\u1ec9nh Qu\u1ea3ng B\u00ecnh", "lat": 17.6102715, "lon": 106.3487474, "order": 1, "status": true, "created_by": null}}, {"model": "location.city", "pk": "85c068a1-f87d-11e8-b461-005056c00008", "fields": {"name": "T\u1ec9nh Qu\u1ea3ng Tr\u1ecb", "lat": 16.7943472, "lon": 106.963409, "order": 1, "status": true, "created_by": null}}, {"model": "location.city", "pk": "85caa1cf-f87d-11e8-98d8-005056c00008", "fields": {"name": "T\u1ec9nh Th\u1eeba Thi\u00ean Hu\u1ebf", "lat": 16.467397, "lon": 107.5905326, "order": 1, "status": true, "created_by": null}}, {"model": "location.city", "pk": "85d61380-f87d-11e8-b5c0-005056c00008", "fields": {"name": "Th\u00e0nh ph\u1ed1 \u0110\u00e0 N\u1eb5ng", "lat": 16.0544068, "lon": 108.2021667, "order": 1, "status": true, "created_by": null}}, {"model": "location.city", "pk": "85ddb49e-f87d-11e8-8bf1-005056c00008", "fields": {"name": "T\u1ec9nh Qu\u1ea3ng Nam", "lat": 15.5393538, "lon": 108.019102, "order": 1, "status": true, "created_by": null}}, {"model": "location.city", "pk": "85e7edcf-f87d-11e8-90ff-005056c00008", "fields": {"name": "T\u1ec9nh Qu\u1ea3ng Ng\u00e3i", "lat": 15.0759838, "lon": 108.7125791, "order": 1, "status": true, "created_by": null}}, {"model": "location.city", "pk": "85f4bf0f-f87d-11e8-b807-005056c00008", "fields": {"name": "T\u1ec9nh B\u00ecnh \u0110\u1ecbnh", "lat": 14.1665324, "lon": 108.902683, "order": 1, "status": true, "created_by": null}}, {"model": "location.city", "pk": "85fef840-f87d-11e8-ab3f-005056c00008", "fields": {"name": "T\u1ec9nh Ph\u00fa Y\u00ean", "lat": 13.0881861, "lon": 109.0928764, "order": 1, "status": true, "created_by": null}}, {"model": "location.city", "pk": "860ba270-f87d-11e8-9d53-005056c00008", "fields": {"name": "T\u1ec9nh Kh\u00e1nh H\u00f2a", "lat": 12.2585098, "lon": 109.0526076, "order": 1, "status": true, "created_by": null}}, {"model": "location.city", "pk": "8615dba1-f87d-11e8-9f01-005056c00008", "fields": {"name": "T\u1ec9nh Ninh Thu\u1eadn", "lat": 11.6738767, "lon": 108.8629572, "order": 1, "status": true, "created_by": null}}, {"model": "location.city", "pk": "862285cf-f87d-11e8-833a-005056c00008", "fields": {"name": "T\u1ec9nh B\u00ecnh Thu\u1eadn", "lat": 11.0903703, "lon": 108.0720781, "order": 1, "status": true, "created_by": null}}, {"model": "location.city", "pk": "862cbf00-f87d-11e8-b13e-005056c00008", "fields": {"name": "T\u1ec9nh Kon Tum", "lat": 14.661167, "lon": 107.83885, "order": 1, "status": true, "created_by": null}}, {"model": "location.city", "pk": "8637e28f-f87d-11e8-a120-005056c00008", "fields": {"name": "T\u1ec9nh Gia Lai", "lat": 13.8078943, "lon": 108.109375, "order": 1, "status": true, "created_by": null}}, {"model": "location.city", "pk": "864242cf-f87d-11e8-aadb-005056c00008", "fields": {"name": "T\u1ec9nh \u0110\u1eafk L\u1eafk", "lat": 12.7100116, "lon": 108.2377519, "order": 1, "status": true, "created_by": null}}, {"model": "location.city", "pk": "86509ab0-f87d-11e8-9244-005056c00008", "fields": {"name": "T\u1ec9nh \u0110\u1eafk N\u00f4ng", "lat": 12.2646476, "lon": 107.609806, "order": 1, "status": true, "created_by": null}}, {"model": "location.city", "pk": "865a85c0-f87d-11e8-8e41-005056c00008", "fields": {"name": "T\u1ec9nh L\u00e2m \u0110\u1ed3ng", "lat": 11.5752791, "lon": 108.1428669, "order": 1, "status": true, "created_by": null}}, {"model": "location.city", "pk": "86672ff0-f87d-11e8-b835-005056c00008", "fields": {"name": "T\u1ec9nh B\u00ecnh Ph\u01b0\u1edbc", "lat": 11.7511894, "lon": 106.7234639, "order": 1, "status": true, "created_by": null}}, {"model": "location.city", "pk": "86882570-f87d-11e8-912b-005056c00008", "fields": {"name": "T\u1ec9nh T\u00e2y Ninh", "lat": 11.3494766, "lon": 106.0640179, "order": 1, "status": true, "created_by": null}}, {"model": "location.city", "pk": "8693971e-f87d-11e8-a407-005056c00008", "fields": {"name": "T\u1ec9nh B\u00ecnh D\u01b0\u01a1ng", "lat": 11.3254024, "lon": 106.477017, "order": 1, "status": true, "created_by": null}}, {"model": "location.city", "pk": "86a1a0de-f87d-11e8-97be-005056c00008", "fields": {"name": "T\u1ec9nh \u0110\u1ed3ng Nai", "lat": 11.0686305, "lon": 107.1675976, "order": 1, "status": true, "created_by": null}}, {"model": "location.city", "pk": "86abda0f-f87d-11e8-8cf6-005056c00008", "fields": {"name": "T\u1ec9nh B\u00e0 R\u1ecba  V\u0169ng T\u00e0u", "lat": 10.5417397, "lon": 107.2429976, "order": 1, "status": true, "created_by": null}}, {"model": "location.city", "pk": "86b74bc0-f87d-11e8-a51a-005056c00008", "fields": {"name": "Th\u00e0nh ph\u1ed1 H\u1ed3 Ch\u00ed Minh", "lat": 10.8230989, "lon": 106.6296638, "order": 1, "status": true, "created_by": null}}, {"model": "location.city", "pk": "86c2bd6e-f87d-11e8-9b74-005056c00008", "fields": {"name": "T\u1ec9nh Long An", "lat": 10.695572, "lon": 106.2431205, "order": 1, "status": true, "created_by": null}}, {"model": "location.city", "pk": "86cccf8f-f87d-11e8-bc58-005056c00008", "fields": {"name": "T\u1ec9nh Ti\u1ec1n Giang", "lat": 10.4493324, "lon": 106.3420504, "order": 1, "status": true, "created_by": null}}, {"model": "location.city", "pk": "86d84140-f87d-11e8-a1a3-005056c00008", "fields": {"name": "T\u1ec9nh B\u1ebfn Tre", "lat": 10.1081553, "lon": 106.4405872, "order": 1, "status": true, "created_by": null}}, {"model": "location.city", "pk": "86dfe25e-f87d-11e8-abde-005056c00008", "fields": {"name": "T\u1ec9nh Tr\u00e0 Vinh", "lat": 9.812741, "lon": 106.2992912, "order": 1, "status": true, "created_by": null}}, {"model": "location.city", "pk": "86edec1e-f87d-11e8-ae0b-005056c00008", "fields": {"name": "T\u1ec9nh V\u0129nh Long", "lat": 10.0861281, "lon": 106.0169971, "order": 1, "status": true, "created_by": null}}, {"model": "location.city", "pk": "86fa9651-f87d-11e8-a848-005056c00008", "fields": {"name": "T\u1ec9nh \u0110\u1ed3ng Th\u00e1p", "lat": 10.4937989, "lon": 105.6881788, "order": 1, "status": true, "created_by": null}}, {"model": "location.city", "pk": "871fd18f-f87d-11e8-8911-005056c00008", "fields": {"name": "T\u1ec9nh An Giang", "lat": 10.5215836, "lon": 105.1258955, "order": 1, "status": true, "created_by": null}}, {"model": "location.city", "pk": "8733cec0-f87d-11e8-86e1-005056c00008", "fields": {"name": "T\u1ec9nh Ki\u00ean Giang", "lat": 9.8249587, "lon": 105.1258955, "order": 1, "status": true, "created_by": null}}, {"model": "location.city", "pk": "8741d880-f87d-11e8-9dda-005056c00008", "fields": {"name": "Th\u00e0nh ph\u1ed1 C\u1ea7n Th\u01a1", "lat": 10.0451618, "lon": 105.7468535, "order": 1, "status": true, "created_by": null}}, {"model": "location.city", "pk": "874979a1-f87d-11e8-8a89-005056c00008", "fields": {"name": "T\u1ec9nh H\u1eadu Giang", "lat": 9.757898, "lon": 105.6412527, "order": 1, "status": true, "created_by": null}}, {"model": "location.city", "pk": "8753b2cf-f87d-11e8-8411-005056c00008", "fields": {"name": "T\u1ec9nh S\u00f3c Tr\u0103ng", "lat": 9.6003688, "lon": 105.9599539, "order": 1, "status": true, "created_by": null}}, {"model": "location.city", "pk": "875f2480-f87d-11e8-8fdf-005056c00008", "fields": {"name": "T\u1ec9nh B\u1ea1c Li\u00eau", "lat": 9.2515555, "lon": 105.5136472, "order": 1, "status": true, "created_by": null}}, {"model": "location.city", "pk": "8770d7c0-f87d-11e8-94f9-005056c00008", "fields": {"name": "T\u1ec9nh C\u00e0 Mau", "lat": 8.9624099, "lon": 105.1258955, "order": 1, "status": true, "created_by": null}}]